{
    "type": "TownsCollection",
    "features": [
        {"type": "Towns", "id": 0, "geometry": {"type": "Point", "coordinates": [55.57329717379465,38.923121730224615]}, "properties": {"balloonContentHeader": "<p><b><a target='_blank' href='https://yotabit.ru/куровское-тарифы.html'>Куровское</a></b></p>", "hintContent": "<a target='_blank' href='https://yotabit.ru/куровское-тарифы.html'>Куровское</a>"},"name": "Куровское"},
        {"type": "Towns", "id": 1, "geometry": {"type": "Point", "coordinates": [55.62551215927682,38.86438575137318]}, "properties": {"balloonContentHeader": "<p><b><a target='_blank' href='https://yotabit.ru/барские-просторы.html'>Барские просторы</a></b></p>", "hintContent": "<a target='_blank' href='https://yotabit.ru/барские-просторы.html'>Барские просторы</a>"},"name": "Барские просторы"},
        {"type": "Towns", "id": 2, "geometry": {"type": "Point", "coordinates": [55.81035799063907,38.87067145899962]}, "properties": {"balloonContentHeader": "<p><b><a target='_blank' href='https://yotabit.ru/снт.-виктория.html'>СНТ Виктория</a></b></p>", "hintContent": "<a target='_blank' href='https://yotabit.ru/снт.-виктория.html'>СНТ Виктория</a>"},"name": "СНТ Виктория"},
        {"type": "Towns", "id": 3, "geometry": {"type": "Point", "coordinates": [55.77231950420328,39.20292799999995]}, "properties": {"balloonContentHeader": "<p><b><a target='_blank' href='https://yotabit.ru/снт-вишенка.html'>СНТ Вишенка</a></b></p>", "hintContent": "<a target='_blank' href='https://yotabit.ru/снт-вишенка.html'>СНТ Вишенка</a>"},"name": "СНТ Вишенка"},
        {"type": "Towns", "id": 4, "geometry": {"type": "Point", "coordinates": [55.57845050810564,39.031664729715864]}, "properties": {"balloonContentHeader": "<p><b><a target='_blank' href='https://yotabit.ru/снт-вишенка-2.html'>СНТ Вишенка 2</a></b></p>", "hintContent": "<a target='_blank' href='https://yotabit.ru/снт-вишенка-2.html'>СНТ Вишенка 2</a>"},"name": "СНТ Вишенка 2"},
        {"type": "Towns", "id": 5, "geometry": {"type": "Point", "coordinates": [55.42782109855514,38.62297999999996]}, "properties": {"balloonContentHeader": "<p><b><a target='_blank' href='https://yotabit.ru/снт-нерское.html'>СНТ Нерское</a></b></p>", "hintContent": "<a target='_blank' href='https://yotabit.ru/снт-нерское.html'>СНТ Нерское</a>"},"name": "СНТ Нерское"},
        {"type": "Towns", "id": 6, "geometry": {"type": "Point", "coordinates": [55.578756055663845,38.834540320098874]}, "properties": {"balloonContentHeader": "<p><b><a target='_blank' href='https://yotabit.ru/снт-сапфир.html'>СНТ Сапфир</a></b></p>", "hintContent": "<a target='_blank' href='https://yotabit.ru/снт-сапфир.html'>СНТ Сапфир</a>"},"name": "СНТ Сапфир"},
        {"type": "Towns", "id": 7, "geometry": {"type": "Point", "coordinates": [55.70323797902171,38.95402403710934]}, "properties": {"balloonContentHeader": "<p><b><a target='_blank' href='https://yotabit.ru/г.-ликино-дулёво.html'>г.Ликино-Дулёво</a></b></p>", "hintContent": "<a target='_blank' href='https://yotabit.ru/г.-ликино-дулёво.html'>г.Ликино-Дулёво</a>"},"name": "г.Ликино-Дулёво"},
        {"type": "Towns", "id": 8, "geometry": {"type": "Point", "coordinates": [55.88005337749611,38.78905149999991]}, "properties": {"balloonContentHeader": "<p><b><a target='_blank' href='https://yotabit.ru/elektrogorsk.html'>г.Электрогорск</a></b></p>", "hintContent": "<a target='_blank' href='https://yotabit.ru/elektrogorsk.html'>г.Электрогорск</a>"},"name": "г.Электрогорск"},
        {"type": "Towns", "id": 9, "geometry": {"type": "Point", "coordinates": [55.5114040820213,39.003709]}, "properties": {"balloonContentHeader": "<p><b><a target='_blank' href='https://yotabit.ru/д.-абрамовка.html'>д.Абрамовка</a></b></p>", "hintContent": "<a target='_blank' href='https://yotabit.ru/д.-абрамовка.html'>д.Абрамовка</a>"},"name": "д.Абрамовка"},
        {"type": "Towns", "id": 10, "geometry": {"type": "Point", "coordinates": [55.55520612956505,38.810679653564414]}, "properties": {"balloonContentHeader": "<p><b><a target='_blank' href='https://yotabit.ru/д.анциферово.html'>д.Анциферово</a></b></p>", "hintContent": "<a target='_blank' href='https://yotabit.ru/д.анциферово.html'>д.Анциферово</a>"},"name": "д.Анциферово"},
        {"type": "Towns", "id": 11, "geometry": {"type": "Point", "coordinates": [55.62476624733562,38.86505399999996]}, "properties": {"balloonContentHeader": "<p><b><a target='_blank' href='https://yotabit.ru/д.барское.html'>д.Барское</a></b></p>", "hintContent": "<a target='_blank' href='https://yotabit.ru/д.барское.html'>д.Барское</a>"},"name": "д.Барское"},
        {"type": "Towns", "id": 12, "geometry": {"type": "Point", "coordinates": [55.734729323902734,39.022420999999945]}, "properties": {"balloonContentHeader": "<p><b><a target='_blank' href='https://yotabit.ru/д.высоково.html'>д.Высоково</a></b></p>", "hintContent": "<a target='_blank' href='https://yotabit.ru/д.высоково.html'>д.Высоково</a>"},"name": "д.Высоково"},
        {"type": "Towns", "id": 13, "geometry": {"type": "Point", "coordinates": [55.661518551477336,38.92374949999995]}, "properties": {"balloonContentHeader": "<p><b><a target='_blank' href='https://yotabit.ru/д.-глебово.html'>д.Глебово</a></b></p>", "hintContent": "<a target='_blank' href='https://yotabit.ru/д.-глебово.html'>д.Глебово</a>"},"name": "д.Глебово"},
        {"type": "Towns", "id": 14, "geometry": {"type": "Point", "coordinates": [55.738386141537354,38.996427499999946]}, "properties": {"balloonContentHeader": "<p><b><a target='_blank' href='https://yotabit.ru/д.-гора.html'>д.Гора</a></b></p>", "hintContent": "<a target='_blank' href='https://yotabit.ru/д.-гора.html'>д.Гора</a>"},"name": "д.Гора"},
        {"type": "Towns", "id": 15, "geometry": {"type": "Point", "coordinates": [55.61053179652975,38.85996499999996]}, "properties": {"balloonContentHeader": "<p><b><a target='_blank' href='https://yotabit.ru/давыдово-тарифы.html'>д.Давыдово</a></b></p>", "hintContent": "<a target='_blank' href='https://yotabit.ru/давыдово-тарифы.html'>д.Давыдово</a>"},"name": "д.Давыдово"},
        {"type": "Towns", "id": 16, "geometry": {"type": "Point", "coordinates": [55.66572842273305,38.97919399999991]}, "properties": {"balloonContentHeader": "<p><b><a target='_blank' href='https://yotabit.ru/д.-дуброво.html'>д.Дуброво</a></b></p>", "hintContent": "<a target='_blank' href='https://yotabit.ru/д.-дуброво.html'>д.Дуброво</a>"},"name": "д.Дуброво"},
        {"type": "Towns", "id": 17, "geometry": {"type": "Point", "coordinates": [55.60979710246045,38.82486300000002]}, "properties": {"balloonContentHeader": "<p><b><a target='_blank' href='https://yotabit.ru/д.-елизарово.html'>д.Елизарово</a></b></p>", "hintContent": "<a target='_blank' href='https://yotabit.ru/д.-елизарово.html'>д.Елизарово</a>"},"name": "д.Елизарово"},
        {"type": "Towns", "id": 18, "geometry": {"type": "Point", "coordinates": [55.58332165942551,38.95771499999999]}, "properties": {"balloonContentHeader": "<p><b><a target='_blank' href='https://yotabit.ru/заволенье.html'>д.Заволенье</a></b></p>", "hintContent": "<a target='_blank' href='https://yotabit.ru/заволенье.html'>д.Заволенье</a>"},"name": "д.Заволенье"},
        {"type": "Towns", "id": 19, "geometry": {"type": "Point", "coordinates": [55.6380914580456,38.86576800000001]}, "properties": {"balloonContentHeader": "<p><b><a target='_blank' href='https://yotabit.ru/д.запонорье.html'>д.Запонорье</a></b></p>", "hintContent": "<a target='_blank' href='https://yotabit.ru/д.запонорье.html'>д.Запонорье</a>"},"name": "д.Запонорье"},
        {"type": "Towns", "id": 20, "geometry": {"type": "Point", "coordinates": [55.642569716535775,38.92593458203125]}, "properties": {"balloonContentHeader": "<p><b><a target='_blank' href='https://yotabit.ru/д.-запрудино.html'>д.Запрудино</a></b></p>", "hintContent": "<a target='_blank' href='https://yotabit.ru/д.-запрудино.html'>д.Запрудино</a>"},"name": "д.Запрудино"},
        {"type": "Towns", "id": 21, "geometry": {"type": "Point", "coordinates": [55.68256684193764,38.95016449999994]}, "properties": {"balloonContentHeader": "<p><b><a target='_blank' href='https://yotabit.ru/д.-коротково.html'>д.Коротково</a></b></p>", "hintContent": "<a target='_blank' href='https://yotabit.ru/д.-коротково.html'>д.Коротково</a>"},"name": "д.Коротково"},
        {"type": "Towns", "id": 22, "geometry": {"type": "Point", "coordinates": [55.582665620033126,38.82592299999994]}, "properties": {"balloonContentHeader": "<p><b><a target='_blank' href='https://yotabit.ru/д.-костино.html'>д.Костино</a></b></p>", "hintContent": "<a target='_blank' href='https://yotabit.ru/д.-костино.html'>д.Костино</a>"},"name": "д.Костино"},
        {"type": "Towns", "id": 23, "geometry": {"type": "Point", "coordinates": [55.63096186944105,38.73296549999996]}, "properties": {"balloonContentHeader": "<p><b><a target='_blank' href='https://yotabit.ru/крупино-тарифы.html'>д.Крупино</a></b></p>", "hintContent": "<a target='_blank' href='https://yotabit.ru/крупино-тарифы.html'>д.Крупино</a>"},"name": "д.Крупино"},
        {"type": "Towns", "id": 24, "geometry": {"type": "Point", "coordinates": [55.732204884779264,38.97927000000001]}, "properties": {"balloonContentHeader": "<p><b><a target='_blank' href='https://yotabit.ru/д.кудыкино.html'>д.Кудыкино</a></b></p>", "hintContent": "<a target='_blank' href='https://yotabit.ru/д.кудыкино.html'>д.Кудыкино</a>"},"name": "д.Кудыкино"},
        {"type": "Towns", "id": 25, "geometry": {"type": "Point", "coordinates": [55.620148560326996,38.838548999999986]}, "properties": {"balloonContentHeader": "<p><b><a target='_blank' href='https://yotabit.ru/д.-ляхово.html'>д.Ляхово</a></b></p>", "hintContent": "<a target='_blank' href='https://yotabit.ru/д.-ляхово.html'>д.Ляхово</a>"},"name": "д.Ляхово"},
        {"type": "Towns", "id": 26, "geometry": {"type": "Point", "coordinates": [55.633772624935396,38.88390049999999]}, "properties": {"balloonContentHeader": "<p><b><a target='_blank' href='https://yotabit.ru/д.-ненилово.html'>д.Ненилово</a></b></p>", "hintContent": "<a target='_blank' href='https://yotabit.ru/д.-ненилово.html'>д.Ненилово</a>"},"name": "д.Ненилово"},
        {"type": "Towns", "id": 27, "geometry": {"type": "Point", "coordinates": [55.630082809091704,38.92194849999988]}, "properties": {"balloonContentHeader": "<p><b><a target='_blank' href='https://yotabit.ru/д.новое.html'>д.Новое</a></b></p>", "hintContent": "<a target='_blank' href='https://yotabit.ru/д.новое.html'>д.Новое</a>"},"name": "д.Новое"},
        {"type": "Towns", "id": 28, "geometry": {"type": "Point", "coordinates": [55.65513254577291,38.904957]}, "properties": {"balloonContentHeader": "<p><b><a target='_blank' href='https://yotabit.ru/д.-радованье.html'>д.Радованье</a></b></p>", "hintContent": "<a target='_blank' href='https://yotabit.ru/д.-радованье.html'>д.Радованье</a>"},"name": "д.Радованье"},
        {"type": "Towns", "id": 29, "geometry": {"type": "Point", "coordinates": [55.58307489569344,38.675374499999975]}, "properties": {"balloonContentHeader": "<p><b><a target='_blank' href='https://yotabit.ru/д.-смолёво.html'>д.Смолёво</a></b></p>", "hintContent": "<a target='_blank' href='https://yotabit.ru/д.-смолёво.html'>д.Смолёво</a>"},"name": "д.Смолёво"},
        {"type": "Towns", "id": 30, "geometry": {"type": "Point", "coordinates": [55.60134537199534,38.964816000000006]}, "properties": {"balloonContentHeader": "<p><b><a target='_blank' href='https://yotabit.ru/д.-тереньково.html'>д.Тереньково</a></b></p>", "hintContent": "<a target='_blank' href='https://yotabit.ru/д.-тереньково.html'>д.Тереньково</a>"},"name": "д.Тереньково"},
        {"type": "Towns", "id": 31, "geometry": {"type": "Point", "coordinates": [55.492377937387936,38.92129699999998]}, "properties": {"balloonContentHeader": "<p><b><a target='_blank' href='https://yotabit.ru/д.-яковлевская.html'>д.Цаплино</a></b></p>", "hintContent": "<a target='_blank' href='https://yotabit.ru/д.-яковлевская.html'>д.Цаплино</a>"},"name": "д.Цаплино"},
        {"type": "Towns", "id": 32, "geometry": {"type": "Point", "coordinates": [55.610272618199545,38.743012999999934]}, "properties": {"balloonContentHeader": "<p><b><a target='_blank' href='https://yotabit.ru/чисто-перхурово-тарифы.html'>д.Чисто-перхурово</a></b></p>", "hintContent": "<a target='_blank' href='https://yotabit.ru/чисто-перхурово-тарифы.html'>д.Чисто-перхурово</a>"},"name": "д.Чисто-перхурово"},
        {"type": "Towns", "id": 33, "geometry": {"type": "Point", "coordinates": [55.634194219535985,38.71390349999999]}, "properties": {"balloonContentHeader": "<p><b><a target='_blank' href='https://yotabit.ru/д.-шебаново.html'>д.Шебаново</a></b></p>", "hintContent": "<a target='_blank' href='https://yotabit.ru/д.-шебаново.html'>д.Шебаново</a>"},"name": "д.Шебаново"},
        {"type": "Towns", "id": 34, "geometry": {"type": "Point", "coordinates": [55.67585163694044,39.00991600000002]}, "properties": {"balloonContentHeader": "<p><b><a target='_blank' href='https://yotabit.ru/д.язвище.html'>д.Язвищи</a></b></p>", "hintContent": "<a target='_blank' href='https://yotabit.ru/д.язвище.html'>д.Язвищи</a>"},"name": "д.Язвищи"},
        {"type": "Towns", "id": 35, "geometry": {"type": "Point", "coordinates": [55.57386906311595,38.78851699999997]}, "properties": {"balloonContentHeader": "<p><b><a target='_blank' href='https://yotabit.ru/д.яковлевская.html'>д.Яковлевская</a></b></p>", "hintContent": "<a target='_blank' href='https://yotabit.ru/д.яковлевская.html'>д.Яковлевская</a>"},"name": "д.Яковлевская"},
        {"type": "Towns", "id": 36, "geometry": {"type": "Point", "coordinates": [55.564503120245966,39.123840499999915]}, "properties": {"balloonContentHeader": "<p><b><a target='_blank' href='https://yotabit.ru/пос.-авсюнино.html'>пос.Авсюнино</a></b></p>", "hintContent": "<a target='_blank' href='https://yotabit.ru/пос.-авсюнино.html'>пос.Авсюнино</a>"},"name": "пос.Авсюнино"},
        {"type": "Towns", "id": 37, "geometry": {"type": "Point", "coordinates": [55.772322632804375,39.0991932036743]}, "properties": {"balloonContentHeader": "<p><b><a target='_blank' href='https://yotabit.ru/пос.-верея.html'>пос.Верея</a></b></p>", "hintContent": "<a target='_blank' href='https://yotabit.ru/пос.-верея.html'>пос.Верея</a>"},"name": "пос.Верея"},
        {"type": "Towns", "id": 38, "geometry": {"type": "Point", "coordinates": [55.47753860519588,38.9110654999999]}, "properties": {"balloonContentHeader": "<p><b><a target='_blank' href='https://yotabit.ru/д.-стенино.html'>с.Ильинский погост</a></b></p>", "hintContent": "<a target='_blank' href='https://yotabit.ru/д.-стенино.html'>с.Ильинский погост</a>"},"name": "с.Ильинский погост"}
        
    ]
}